__time,/joint_states/header/seq,/joint_states/header/stamp,/joint_states/ursa_elbow_joint/effort,/joint_states/ursa_elbow_joint/position,/joint_states/ursa_elbow_joint/velocity,/joint_states/ursa_shoulder_lift_joint/effort,/joint_states/ursa_shoulder_lift_joint/position,/joint_states/ursa_shoulder_lift_joint/velocity,/joint_states/ursa_shoulder_pan_joint/effort,/joint_states/ursa_shoulder_pan_joint/position,/joint_states/ursa_shoulder_pan_joint/velocity,/joint_states/ursa_wrist_1_joint/effort,/joint_states/ursa_wrist_1_joint/position,/joint_states/ursa_wrist_1_joint/velocity,/joint_states/ursa_wrist_2_joint/effort,/joint_states/ursa_wrist_2_joint/position,/joint_states/ursa_wrist_2_joint/velocity,/joint_states/ursa_wrist_3_joint/effort,/joint_states/ursa_wrist_3_joint/position,/joint_states/ursa_wrist_3_joint/velocity,/my_joint_dest/Joint 1/effort,/my_joint_dest/Joint 1/position,/my_joint_dest/Joint 1/velocity,/my_joint_dest/Joint 2/effort,/my_joint_dest/Joint 2/position,/my_joint_dest/Joint 2/velocity,/my_joint_dest/Joint 3/effort,/my_joint_dest/Joint 3/position,/my_joint_dest/Joint 3/velocity,/my_joint_dest/Joint 4/effort,/my_joint_dest/Joint 4/position,/my_joint_dest/Joint 4/velocity,/my_joint_dest/Joint 5/effort,/my_joint_dest/Joint 5/position,/my_joint_dest/Joint 5/velocity,/my_joint_dest/Joint 6/effort,/my_joint_dest/Joint 6/position,/my_joint_dest/Joint 6/velocity,/my_joint_dest/header/seq,/my_joint_dest/header/stamp,/my_joint_errors/Joint 1/effort,/my_joint_errors/Joint 1/position,/my_joint_errors/Joint 1/velocity,/my_joint_errors/Joint 2/effort,/my_joint_errors/Joint 2/position,/my_joint_errors/Joint 2/velocity,/my_joint_errors/Joint 3/effort,/my_joint_errors/Joint 3/position,/my_joint_errors/Joint 3/velocity,/my_joint_errors/Joint 4/effort,/my_joint_errors/Joint 4/position,/my_joint_errors/Joint 4/velocity,/my_joint_errors/Joint 5/effort,/my_joint_errors/Joint 5/position,/my_joint_errors/Joint 5/velocity,/my_joint_errors/Joint 6/effort,/my_joint_errors/Joint 6/position,/my_joint_errors/Joint 6/velocity,/my_joint_errors/header/seq,/my_joint_errors/header/stamp
1646675097.542187,,,,,,,,,,,,,,,,,,,,,,,,,,,,,,,,,,,,,,,,,-0.000016,-0.000074,-0.000169,0.000004,0.000046,0.000269,0.000075,0.000427,0.001309,0.000516,0.002549,0.003933,-0.000616,-0.003982,-0.016421,0.000197,0.000976,0.000939,737.000000,0.000000
1646675097.542207,,,,,,,,,,,,,,,,,,,,,0.051771,0.002322,0.013951,0.103542,-1.566152,0.027903,-0.517709,-0.023224,-0.139515,0.000000,-1.570796,0.000000,0.465938,0.020902,0.125563,0.000000,0.000000,0.000000,737.000000,0.000000,,,,,,,,,,,,,,,,,,,,
1646675097.544156,,,,,,,,,,,,,,,,,,,,,,,,,,,,,,,,,,,,,,,,,-0.000016,-0.000074,-0.000169,0.000005,0.000047,0.000268,0.000076,0.000430,0.001309,0.000521,0.002557,0.003902,-0.000624,-0.004015,-0.016501,0.000199,0.000978,0.000919,738.000000,0.000000
1646675097.544185,,,,,,,,,,,,,,,,,,,,,0.051897,0.002351,0.014056,0.103793,-1.566095,0.028113,-0.518965,-0.023508,-0.140564,0.000000,-1.570796,0.000000,0.467069,0.021157,0.126507,0.000000,0.000000,0.000000,738.000000,0.000000,,,,,,,,,,,,,,,,,,,,
1646675097.546071,,,,,,,,,,,,,,,,,,,,,,,,,,,,,,,,,,,,,,,,,-0.000016,-0.000075,-0.000177,0.000005,0.000047,0.000186,0.000076,0.000436,0.001531,0.000526,0.002565,0.003736,-0.000632,-0.004051,-0.016429,0.000201,0.000980,0.000905,739.000000,0.000000
1646675097.546125,,,,,,,,,,,,,,,,,,,,,0.052020,0.002379,0.014161,0.104041,-1.566038,0.028321,-0.520204,-0.023791,-0.141607,0.000000,-1.570796,0.000000,0.468184,0.021412,0.127446,0.000000,0.000000,0.000000,739.000000,0.000000,,,,,,,,,,,,,,,,,,,,
1646675097.548129,,,,,,,,,,,,,,,,,,,,,,,,,,,,,,,,,,,,,,,,,-0.000016,-0.000075,-0.000180,0.000005,0.000047,0.000150,0.000077,0.000440,0.001626,0.000531,0.002572,0.003649,-0.000640,-0.004085,-0.016480,0.000203,0.000982,0.000887,740.000000,0.000000
1646675097.548148,,,,,,,,,,,,,,,,,,,,,0.052141,0.002407,0.014263,0.104282,-1.565982,0.028526,-0.521411,-0.024070,-0.142632,0.000000,-1.570796,0.000000,0.469270,0.021663,0.128369,0.000000,0.000000,0.000000,740.000000,0.000000,,,,,,,,,,,,,,,,,,,,
1646675097.550112,,,,,,,,,,,,,,,,,,,,,,,,,,,,,,,,,,,,,,,,,-0.000016,-0.000075,-0.000175,0.000005,0.000048,0.000179,0.000078,0.000439,0.001528,0.000536,0.002579,0.003677,-0.000648,-0.004114,-0.016703,0.000205,0.000984,0.000866,741.000000,0.000000
1646675097.550468,,,,,,,,,,,,,,,,,,,,,0.052263,0.002436,0.014368,0.104526,-1.565925,0.028735,-0.522631,-0.024357,-0.143676,0.000000,-1.570796,0.000000,0.470368,0.021921,0.129309,0.000000,0.000000,0.000000,741.000000,0.000000,,,,,,,,,,,,,,,,,,,,
1646675097.552084,,,,,,,,,,,,,,,,,,,,,,,,,,,,,,,,,,,,,,,,,-0.000017,-0.000075,-0.000174,0.000005,0.000048,0.000188,0.000079,0.000442,0.001506,0.000541,0.002587,0.003665,-0.000657,-0.004148,-0.016801,0.000207,0.000985,0.000845,742.000000,0.000000
1646675097.552147,,,,,,,,,,,,,,,,,,,,,0.052384,0.002465,0.014472,0.104768,-1.565867,0.028944,-0.523842,-0.024645,-0.144722,0.000000,-1.570796,0.000000,0.471457,0.022181,0.130250,0.000000,0.000000,0.000000,742.000000,0.000000,,,,,,,,,,,,,,,,,,,,
1646675097.554136,,,,,,,,,,,,,,,,,,,,,,,,,,,,,,,,,,,,,,,,,-0.000017,-0.000076,-0.000177,0.000005,0.000049,0.000160,0.000080,0.000445,0.001596,0.000547,0.002594,0.003576,-0.000665,-0.004181,-0.016684,0.000209,0.000987,0.000825,743.000000,0.000000
1646675097.554206,,,,,,,,,,,,,,,,,,,,,0.052507,0.002494,0.014579,0.105013,-1.565808,0.029158,-0.525066,-0.024940,-0.145788,0.000000,-1.570796,0.000000,0.472559,0.022446,0.131209,0.000000,0.000000,0.000000,743.000000,0.000000,,,,,,,,,,,,,,,,,,,,
1646675097.556255,,,,,,,,,,,,,,,,,,,,,,,,,,,,,,,,,,,,,,,,,-0.000017,-0.000076,-0.000180,0.000005,0.000048,0.000135,0.000081,0.000453,0.001676,0.000552,0.002601,0.003510,-0.000673,-0.004219,-0.016685,0.000211,0.000989,0.000806,744.000000,0.000000
1646675097.556354,,,,,,,,,,,,,,,,,,,,,0.052625,0.002523,0.014682,0.105249,-1.565751,0.029365,-0.526245,-0.025229,-0.146825,0.000000,-1.570796,0.000000,0.473621,0.022706,0.132142,0.000000,0.000000,0.000000,744.000000,0.000000,,,,,,,,,,,,,,,,,,,,
1646675097.558140,,,,,,,,,,,,,,,,,,,,,,,,,,,,,,,,,,,,,,,,,-0.000017,-0.000076,-0.000176,0.000005,0.000049,0.000165,0.000082,0.000452,0.001580,0.000557,0.002608,0.003540,-0.000682,-0.004249,-0.016887,0.000213,0.000990,0.000785,745.000000,0.000000
1646675097.558225,,,,,,,,,,,,,,,,,,,,,0.052743,0.002552,0.014788,0.105487,-1.565692,0.029575,-0.527434,-0.025523,-0.147877,0.000000,-1.570796,0.000000,0.474690,0.022971,0.133090,0.000000,0.000000,0.000000,745.000000,0.000000,,,,,,,,,,,,,,,,,,,,
1646675097.558264,1864788.000000,1646675097.557938,-5.702401,-0.023915,-0.142170,-3.137621,-1.565876,0.028923,0.950155,0.002360,0.014194,-1.352665,-1.568210,0.003665,2.169072,0.017773,0.112508,-0.505033,0.000985,0.000845,,,,,,,,,,,,,,,,,,,,,,,,,,,,,,,,,,,,,,,,
1646675097.560117,,,,,,,,,,,,,,,,,,,,,,,,,,,,,,,,,,,,,,,,,-0.000017,-0.000077,-0.000173,0.000005,0.000050,0.000199,0.000083,0.000455,0.001485,0.000562,0.002615,0.003579,-0.000690,-0.004283,-0.017038,0.000215,0.000992,0.000764,746.000000,0.000000
1646675097.561948,,,,,,,,,,,,,,,,,,,,,0.052861,0.002582,0.014893,0.105723,-1.565632,0.029787,-0.528615,-0.025820,-0.148933,0.000000,-1.570796,0.000000,0.475753,0.023238,0.134040,0.000000,0.000000,0.000000,746.000000,0.000000,,,,,,,,,,,,,,,,,,,,
1646675097.562150,,,,,,,,,,,,,,,,,,,,,,,,,,,,,,,,,,,,,,,,,-0.000017,-0.000077,-0.000174,0.000005,0.000050,0.000191,0.000084,0.000458,0.001523,0.000567,0.002622,0.003527,-0.000699,-0.004316,-0.016936,0.000217,0.000993,0.000745,747.000000,0.000000
1646675097.562165,,,,,,,,,,,,,,,,,,,,,0.052979,0.002612,0.014999,0.105958,-1.565573,0.029998,-0.529789,-0.026119,-0.149991,0.000000,-1.570796,0.000000,0.476810,0.023507,0.134992,0.000000,0.000000,0.000000,747.000000,0.000000,,,,,,,,,,,,,,,,,,,,
1646675097.564159,,,,,,,,,,,,,,,,,,,,,,,,,,,,,,,,,,,,,,,,,-0.000017,-0.000077,-0.000176,0.000006,0.000051,0.000174,0.000085,0.000461,0.001579,0.000573,0.002629,0.003466,-0.000708,-0.004350,-0.016848,0.000219,0.000995,0.000728,748.000000,0.000000
1646675097.564184,,,,,,,,,,,,,,,,,,,,,0.053097,0.002642,0.015107,0.106195,-1.565511,0.030214,-0.530974,-0.026425,-0.151069,0.000000,-1.570796,0.000000,0.477877,0.023782,0.135962,0.000000,0.000000,0.000000,748.000000,0.000000,,,,,,,,,,,,,,,,,,,,
1646675097.566216,,,,,,,,,,,,,,,,,,,,,,,,,,,,,,,,,,,,,,,,,-0.000018,-0.000078,-0.000178,0.000006,0.000050,0.000160,0.000086,0.000469,0.001616,0.000578,0.002636,0.003434,-0.000716,-0.004388,-0.017002,0.000221,0.000996,0.000712,749.000000,0.000000
1646675097.566234,,,,,,,,,,,,,,,,,,,,,0.053212,0.002672,0.015212,0.106423,-1.565452,0.030423,-0.532116,-0.026723,-0.152115,0.000000,-1.570796,0.000000,0.478904,0.024051,0.136904,0.000000,0.000000,0.000000,749.000000,0.000000,,,,,,,,,,,,,,,,,,,,
1646675097.568100,,,,,,,,,,,,,,,,,,,,,,,,,,,,,,,,,,,,,,,,,-0.000018,-0.000078,-0.000174,0.000006,0.000051,0.000195,0.000086,0.000467,0.001505,0.000583,0.002643,0.003477,-0.000725,-0.004418,-0.017204,0.000223,0.000998,0.000695,750.000000,0.000000
1646675097.568163,,,,,,,,,,,,,,,,,,,,,0.053328,0.002703,0.015320,0.106657,-1.565390,0.030639,-0.533285,-0.027033,-0.153196,0.000000,-1.570796,0.000000,0.479956,0.024330,0.137877,0.000000,0.000000,0.000000,750.000000,0.000000,,,,,,,,,,,,,,,,,,,,
1646675097.568233,1864789.000000,1646675097.567987,-6.046009,-0.026256,-0.150610,-3.219163,-1.565400,0.030618,0.985858,0.002594,0.015038,-1.380818,-1.568153,0.003477,2.308452,0.019633,0.119700,-0.510581,0.000998,0.000695,,,,,,,,,,,,,,,,,,,,,,,,,,,,,,,,,,,,,,,,
1646675097.570084,,,,,,,,,,,,,,,,,,,,,,,,,,,,,,,,,,,,,,,,,-0.000018,-0.000079,-0.000173,0.000006,0.000051,0.000222,0.000087,0.000475,0.001449,0.000589,0.002650,0.003501,-0.000734,-0.004457,-0.017234,0.000225,0.000999,0.000677,751.000000,0.000000
1646675097.570413,,,,,,,,,,,,,,,,,,,,,0.053441,0.002734,0.015425,0.106882,-1.565329,0.030850,-0.534412,-0.027336,-0.154248,0.000000,-1.570796,0.000000,0.480971,0.024602,0.138823,0.000000,0.000000,0.000000,751.000000,0.000000,,,,,,,,,,,,,,,,,,,,
1646675097.572069,,,,,,,,,,,,,,,,,,,,,,,,,,,,,,,,,,,,,,,,,-0.000018,-0.000079,-0.000172,0.000006,0.000052,0.000239,0.000088,0.000473,0.001418,0.000594,0.002657,0.003486,-0.000743,-0.004487,-0.017090,0.000227,0.001000,0.000660,752.000000,0.000000
1646675097.572116,,,,,,,,,,,,,,,,,,,,,0.053555,0.002765,0.015532,0.107110,-1.565267,0.031063,-0.535548,-0.027645,-0.155317,0.000000,-1.570796,0.000000,0.481994,0.024881,0.139785,0.000000,0.000000,0.000000,752.000000,0.000000,,,,,,,,,,,,,,,,,,,,
1646675097.574147,,,,,,,,,,,,,,,,,,,,,,,,,,,,,,,,,,,,,,,,,-0.000018,-0.000079,-0.000172,0.000006,0.000053,0.000238,0.000089,0.000475,0.001425,0.000599,0.002664,0.003460,-0.000752,-0.004521,-0.017079,0.000229,0.001002,0.000646,753.000000,0.000000
1646675097.574212,,,,,,,,,,,,,,,,,,,,,0.053669,0.002796,0.015640,0.107338,-1.565204,0.031280,-0.536692,-0.027961,-0.156402,0.000000,-1.570796,0.000000,0.483023,0.025165,0.140762,0.000000,0.000000,0.000000,753.000000,0.000000,,,,,,,,,,,,,,,,,,,,
1646675097.576127,,,,,,,,,,,,,,,,,,,,,,,,,,,,,,,,,,,,,,,,,-0.000018,-0.000080,-0.000176,0.000006,0.000052,0.000195,0.000090,0.000482,0.001531,0.000605,0.002671,0.003384,-0.000761,-0.004558,-0.017216,0.000231,0.001003,0.000637,754.000000,0.000000
1646675097.576144,,,,,,,,,,,,,,,,,,,,,0.053782,0.002828,0.015748,0.107564,-1.565141,0.031497,-0.537821,-0.028276,-0.157483,0.000000,-1.570796,0.000000,0.484039,0.025449,0.141734,0.000000,0.000000,0.000000,754.000000,0.000000,,,,,,,,,,,,,,,,,,,,
1646675097.578105,1864790.000000,1646675097.577912,-6.046009,-0.026256,-0.150610,-3.219163,-1.565400,0.030618,0.985858,0.002594,0.015038,-1.380818,-1.568153,0.003477,2.308452,0.019633,0.119700,-0.510581,0.000998,0.000695,,,,,,,,,,,,,,,,,,,,,,,,,,,,,,,,,,,,,,,,
1646675097.578161,,,,,,,,,,,,,,,,,,,,,,,,,,,,,,,,,,,,,,,,,-0.000019,-0.000080,-0.000177,0.000006,0.000052,0.000187,0.000091,0.000487,0.001545,0.000610,0.002678,0.003364,-0.000771,-0.004595,-0.017368,0.000233,0.001004,0.000626,755.000000,0.000000
1646675097.578178,,,,,,,,,,,,,,,,,,,,,0.053895,0.002860,0.015857,0.107790,-1.565077,0.031715,-0.538951,-0.028597,-0.158574,0.000000,-1.570796,0.000000,0.485056,0.025737,0.142717,0.000000,0.000000,0.000000,755.000000,0.000000,,,,,,,,,,,,,,,,,,,,
1646675097.580106,,,,,,,,,,,,,,,,,,,,,,,,,,,,,,,,,,,,,,,,,-0.000019,-0.000081,-0.000175,0.000006,0.000052,0.000229,0.000092,0.000494,0.001448,0.000615,0.002684,0.003418,-0.000780,-0.004633,-0.017446,0.000235,0.001005,0.000611,756.000000,0.000000
1646675097.589567,,,,,,,,,,,,,,,,,,,,,0.054440,0.003020,0.016398,0.108880,-1.564755,0.032795,-0.544402,-0.030205,-0.163976,0.000000,-1.570796,0.000000,0.489962,0.027184,0.147579,0.000000,0.000000,0.000000,760.000000,0.000000,,,,,,,,,,,,,,,,,,,,
1646675097.589586,,,,,,,,,,,,,,,,,,,,,,,,,,,,,,,,,,,,,,,,,-0.000019,-0.000082,-0.000172,0.000007,0.000056,0.000285,0.000096,0.000499,0.001321,0.000637,0.002713,0.003408,-0.000818,-0.004768,-0.017259,0.000243,0.001010,0.000574,760.000000,0.000000
1646675097.589598,1864791.000000,1646675097.587917,-6.287555,-0.029056,-0.160748,-3.322521,-1.564831,0.032751,1.008457,0.002874,0.016016,-1.411865,-1.568091,0.003596,2.466863,0.021864,0.128315,-0.515316,0.001009,0.000572,,,,,,,,,,,,,,,,,,,,,,,,,,,,,,,,,,,,,,,,
1646675097.592733,,,,,,,,,,,,,,,,,,,,,,,,,,,,,,,,,,,,,,,,,-0.000020,-0.000082,-0.000176,0.000007,0.000057,0.000178,0.000098,0.000500,0.001550,0.000648,0.002726,0.003232,-0.000837,-0.004833,-0.017634,0.000247,0.001012,0.000570,762.000000,0.000000
1646675097.592755,,,,,,,,,,,,,,,,,,,,,0.054652,0.003086,0.016614,0.109304,-1.564624,0.033228,-0.546519,-0.030860,-0.166140,0.000000,-1.570796,0.000000,0.491867,0.027774,0.149526,0.000000,0.000000,0.000000,762.000000,0.000000,,,,,,,,,,,,,,,,,,,,
1646675097.601284,,,,,,,,,,,,,,,,,,,,,,,,,,,,,,,,,,,,,,,,,-0.000020,-0.000084,-0.000174,0.000007,0.000058,0.000179,0.000102,0.000518,0.001570,0.000670,0.002751,0.003189,-0.000876,-0.004979,-0.017887,0.000255,0.001017,0.000523,766.000000,0.000000
1646675097.601306,,,,,,,,,,,,,,,,,,,,,0.055071,0.003221,0.017053,0.110142,-1.564355,0.034107,-0.550708,-0.032208,-0.170534,0.000000,-1.570796,0.000000,0.495637,0.028987,0.153480,0.000000,0.000000,0.000000,766.000000,0.000000,,,,,,,,,,,,,,,,,,,,
1646675097.601320,1864792.000000,1646675097.597923,-6.287555,-0.029056,-0.160748,-3.322521,-1.564831,0.032751,1.008457,0.002874,0.016016,-1.411865,-1.568091,0.003596,2.466863,0.021864,0.128315,-0.515316,0.001009,0.000572,,,,,,,,,,,,,,,,,,,,,,,,,,,,,,,,,,,,,,,,
1646675097.607664,,,,,,,,,,,,,,,,,,,,,,,,,,,,,,,,,,,,,,,,,-0.000021,-0.000085,-0.000173,0.000008,0.000060,0.000166,0.000105,0.000522,0.001628,0.000686,0.002770,0.003110,-0.000906,-0.005081,-0.017690,0.000261,0.001020,0.000493,769.000000,0.000000
1646675097.607685,,,,,,,,,,,,,,,,,,,,,0.055378,0.003324,0.017386,0.110756,-1.564148,0.034771,-0.553778,-0.033244,-0.173856,0.000000,-1.570796,0.000000,0.498400,0.029919,0.156471,0.000000,0.000000,0.000000,769.000000,0.000000,,,,,,,,,,,,,,,,,,,,
1646675097.608183,1864793.000000,1646675097.607920,-6.603412,-0.031690,-0.169091,-3.364258,-1.564296,0.034335,1.042756,0.003137,0.016885,-1.438229,-1.568039,0.003254,2.610661,0.023975,0.135535,-0.519909,0.001018,0.000509,,,,,,,,,,,,,,,,,,,,,,,,,,,,,,,,,,,,,,,,
1646675097.608261,,,,,,,,,,,,,,,,,,,,,,,,,,,,,,,,,,,,,,,,,-0.000021,-0.000085,-0.000177,0.000008,0.000059,0.000108,0.000106,0.000530,0.001769,0.000692,0.002776,0.003030,-0.000917,-0.005121,-0.017893,0.000263,0.001021,0.000489,770.000000,0.000000
1646675097.608294,,,,,,,,,,,,,,,,,,,,,0.055478,0.003359,0.017496,0.110955,-1.564078,0.034992,-0.554777,-0.033590,-0.174958,0.000000,-1.570796,0.000000,0.499299,0.030231,0.157462,0.000000,0.000000,0.000000,770.000000,0.000000,,,,,,,,,,,,,,,,,,,,
1646675097.610178,,,,,,,,,,,,,,,,,,,,,,,,,,,,,,,,,,,,,,,,,-0.000021,-0.000086,-0.000174,0.000008,0.000060,0.000118,0.000108,0.000531,0.001722,0.000697,0.002783,0.003057,-0.000927,-0.005155,-0.018158,0.000265,0.001022,0.000481,771.000000,0.000000
1646675097.610248,,,,,,,,,,,,,,,,,,,,,0.055578,0.003394,0.017608,0.111157,-1.564007,0.035216,-0.555784,-0.033944,-0.176078,0.000000,-1.570796,0.000000,0.500206,0.030550,0.158470,0.000000,0.000000,0.000000,771.000000,0.000000,,,,,,,,,,,,,,,,,,,,
1646675097.612194,,,,,,,,,,,,,,,,,,,,,,,,,,,,,,,,,,,,,,,,,-0.000021,-0.000086,-0.000171,0.000008,0.000060,0.000160,0.000109,0.000537,0.001626,0.000703,0.002789,0.003119,-0.000937,-0.005194,-0.018211,0.000268,0.001023,0.000467,772.000000,0.000000
1646675097.612221,,,,,,,,,,,,,,,,,,,,,0.055679,0.003430,0.017721,0.111359,-1.563936,0.035442,-0.556794,-0.034304,-0.177210,0.000000,-1.570796,0.000000,0.501115,0.030874,0.159489,0.000000,0.000000,0.000000,772.000000,0.000000,,,,,,,,,,,,,,,,,,,,
1646675097.614235,,,,,,,,,,,,,,,,,,,,,,,,,,,,,,,,,,,,,,,,,-0.000022,-0.000087,-0.000170,0.000008,0.000059,0.000197,0.000110,0.000547,0.001567,0.000709,0.002795,0.003161,-0.000948,-0.005236,-0.018081,0.000270,0.001024,0.000454,773.000000,0.000000
1646675097.614324,,,,,,,,,,,,,,,,,,,,,0.055774,0.003465,0.017829,0.111549,-1.563867,0.035657,-0.557745,-0.034647,-0.178287,0.000000,-1.570796,0.000000,0.501970,0.031183,0.160458,0.000000,0.000000,0.000000,773.000000,0.000000,,,,,,,,,,,,,,,,,,,,
1646675097.616074,,,,,,,,,,,,,,,,,,,,,,,,,,,,,,,,,,,,,,,,,-0.000022,-0.000086,-0.000161,0.000008,0.000062,0.000290,0.000111,0.000538,0.001320,0.000714,0.002801,0.003287,-0.000958,-0.005261,-0.018035,0.000272,0.001024,0.000440,774.000000,0.000000
1646675097.616159,,,,,,,,,,,,,,,,,,,,,0.055872,0.003500,0.017940,0.111744,-1.563795,0.035881,-0.558722,-0.035005,-0.179403,0.000000,-1.570796,0.000000,0.502850,0.031504,0.161463,0.000000,0.000000,0.000000,774.000000,0.000000,,,,,,,,,,,,,,,,,,,,
1646675097.618164,,,,,,,,,,,,,,,,,,,,,,,,,,,,,,,,,,,,,,,,,-0.000022,-0.000087,-0.000159,0.000009,0.000062,0.000302,0.000112,0.000540,0.001288,0.000720,0.002808,0.003305,-0.000969,-0.005297,-0.018100,0.000274,0.001025,0.000436,775.000000,0.000000
1646675097.618529,,,,,,,,,,,,,,,,,,,,,0.055969,0.003537,0.018052,0.111939,-1.563723,0.036104,-0.559693,-0.035365,-0.180522,0.000000,-1.570796,0.000000,0.503724,0.031829,0.162470,0.000000,0.000000,0.000000,775.000000,0.000000,,,,,,,,,,,,,,,,,,,,
1646675097.618550,1864794.000000,1646675097.617878,-6.818000,-0.034465,-0.178115,-3.468493,-1.563733,0.036182,1.059870,0.003414,0.017781,-1.464104,-1.567988,0.003305,2.753252,0.026207,0.143363,-0.523273,0.001025,0.000436,,,,,,,,,,,,,,,,,,,,,,,,,,,,,,,,,,,,,,,,
1646675097.620186,,,,,,,,,,,,,,,,,,,,,,,,,,,,,,,,,,,,,,,,,-0.000022,-0.000087,-0.000167,0.000009,0.000063,0.000197,0.000113,0.000543,0.001555,0.000725,0.002814,0.003132,-0.000980,-0.005334,-0.018061,0.000276,0.001026,0.000440,776.000000,0.000000
1646675097.620270,,,,,,,,,,,,,,,,,,,,,0.056067,0.003573,0.018166,0.112134,-1.563650,0.036332,-0.560671,-0.035733,-0.181661,0.000000,-1.570796,0.000000,0.504604,0.032160,0.163494,0.000000,0.000000,0.000000,776.000000,0.000000,,,,,,,,,,,,,,,,,,,,
1646675097.622209,,,,,,,,,,,,,,,,,,,,,,,,,,,,,,,,,,,,,,,,,-0.000022,-0.000088,-0.000175,0.000009,0.000062,0.000109,0.000114,0.000553,0.001783,0.000731,0.002821,0.002998,-0.000990,-0.005375,-0.018117,0.000278,0.001027,0.000441,777.000000,0.000000
1646675097.622296,,,,,,,,,,,,,,,,,,,,,0.056161,0.003609,0.018277,0.112323,-1.563578,0.036553,-0.561614,-0.036092,-0.182767,0.000000,-1.570796,0.000000,0.505452,0.032483,0.164490,0.000000,0.000000,0.000000,777.000000,0.000000,,,,,,,,,,,,,,,,,,,,
1646675097.624200,,,,,,,,,,,,,,,,,,,,,,,,,,,,,,,,,,,,,,,,,-0.000022,-0.000088,-0.000171,0.000009,0.000063,0.000118,0.000115,0.000551,0.001738,0.000737,0.002827,0.003021,-0.001001,-0.005407,-0.018339,0.000280,0.001028,0.000436,778.000000,0.000000
1646675097.624294,,,,,,,,,,,,,,,,,,,,,0.056258,0.003646,0.018391,0.112515,-1.563503,0.036782,-0.562577,-0.036465,-0.183909,0.000000,-1.570796,0.000000,0.506320,0.032818,0.165518,0.000000,0.000000,0.000000,778.000000,0.000000,,,,,,,,,,,,,,,,,,,,
1646675097.626210,,,,,,,,,,,,,,,,,,,,,,,,,,,,,,,,,,,,,,,,,-0.000023,-0.000089,-0.000169,0.000009,0.000062,0.000150,0.000116,0.000560,0.001663,0.000742,0.002833,0.003082,-0.001012,-0.005449,-0.018505,0.000282,0.001029,0.000427,779.000000,0.000000
1646675097.626240,,,,,,,,,,,,,,,,,,,,,0.056352,0.003683,0.018503,0.112703,-1.563430,0.037007,-0.563517,-0.036833,-0.185033,0.000000,-1.570796,0.000000,0.507165,0.033150,0.166529,0.000000,0.000000,0.000000,779.000000,0.000000,,,,,,,,,,,,,,,,,,,,
1646675097.628388,1864795.000000,1646675097.628016,-6.818000,-0.034465,-0.178115,-3.468493,-1.563733,0.036182,1.059870,0.003414,0.017781,-1.464104,-1.567988,0.003305,2.753252,0.026207,0.143363,-0.523273,0.001025,0.000436,,,,,,,,,,,,,,,,,,,,,,,,,,,,,,,,,,,,,,,,
1646675097.629533,,,,,,,,,,,,,,,,,,,,,,,,,,,,,,,,,,,,,,,,,-0.000023,-0.000089,-0.000166,0.000009,0.000063,0.000183,0.000117,0.000563,0.001595,0.000748,0.002839,0.003121,-0.001023,-0.005485,-0.018417,0.000284,0.001030,0.000417,780.000000,0.000000
1646675097.629573,,,,,,,,,,,,,,,,,,,,,0.056446,0.003721,0.018617,0.112891,-1.563355,0.037234,-0.564457,-0.037207,-0.186168,0.000000,-1.570796,0.000000,0.508012,0.033486,0.167551,0.000000,0.000000,0.000000,780.000000,0.000000,,,,,,,,,,,,,,,,,,,,
1646675097.630472,,,,,,,,,,,,,,,,,,,,,,,,,,,,,,,,,,,,,,,,,-0.000023,-0.000089,-0.000164,0.000009,0.000063,0.000235,0.000119,0.000568,0.001484,0.000754,0.002845,0.003193,-0.001034,-0.005524,-0.018337,0.000286,0.001031,0.000407,781.000000,0.000000
1646675097.630504,,,,,,,,,,,,,,,,,,,,,0.056539,0.003758,0.018730,0.113078,-1.563280,0.037460,-0.565388,-0.037581,-0.187301,0.000000,-1.570796,0.000000,0.508849,0.033823,0.168571,0.000000,0.000000,0.000000,781.000000,0.000000,,,,,,,,,,,,,,,,,,,,
1646675097.632376,,,,,,,,,,,,,,,,,,,,,,,,,,,,,,,,,,,,,,,,,-0.000023,-0.000090,-0.000161,0.000009,0.000063,0.000277,0.000120,0.000572,0.001379,0.000759,0.002852,0.003262,-0.001045,-0.005562,-0.018399,0.000288,0.001031,0.000401,782.000000,0.000000
1646675097.632414,,,,,,,,,,,,,,,,,,,,,0.056629,0.003795,0.018841,0.113257,-1.563207,0.037681,-0.566287,-0.037948,-0.188407,0.000000,-1.570796,0.000000,0.509658,0.034153,0.169566,0.000000,0.000000,0.000000,782.000000,0.000000,,,,,,,,,,,,,,,,,,,,
1646675097.634604,,,,,,,,,,,,,,,,,,,,,,,,,,,,,,,,,,,,,,,,,-0.000023,-0.000089,-0.000155,0.000010,0.000065,0.000321,0.000121,0.000566,0.001250,0.000765,0.002858,0.003329,-0.001056,-0.005591,-0.018468,0.000290,0.001032,0.000398,783.000000,0.000000
1646675097.634729,,,,,,,,,,,,,,,,,,,,,0.056721,0.003833,0.018956,0.113443,-1.563130,0.037911,-0.567213,-0.038332,-0.189557,0.000000,-1.570796,0.000000,0.510492,0.034499,0.170601,0.000000,0.000000,0.000000,783.000000,0.000000,,,,,,,,,,,,,,,,,,,,
1646675097.636521,,,,,,,,,,,,,,,,,,,,,,,,,,,,,,,,,,,,,,,,,-0.000024,-0.000090,-0.000160,0.000010,0.000065,0.000276,0.000122,0.000574,0.001377,0.000771,0.002865,0.003258,-0.001068,-0.005633,-0.018423,0.000292,0.001033,0.000401,784.000000,0.000000
1646675097.636563,,,,,,,,,,,,,,,,,,,,,0.056812,0.003871,0.019069,0.113623,-1.563054,0.038137,-0.568116,-0.038710,-0.190687,0.000000,-1.570796,0.000000,0.511304,0.034839,0.171619,0.000000,0.000000,0.000000,784.000000,0.000000,,,,,,,,,,,,,,,,,,,,
1646675097.638366,1864796.000000,1646675097.637941,-7.135279,-0.037758,-0.188180,-3.548958,-1.563065,0.038187,1.088159,0.003743,0.018796,-1.493654,-1.567931,0.003258,2.921580,0.028866,0.152179,-0.526968,0.001033,0.000401,,,,,,,,,,,,,,,,,,,,,,,,,,,,,,,,,,,,,,,,
1646675097.639190,,,,,,,,,,,,,,,,,,,,,,,,,,,,,,,,,,,,,,,,,-0.000024,-0.000090,-0.000165,0.000010,0.000065,0.000207,0.000123,0.000576,0.001555,0.000777,0.002871,0.003141,-0.001079,-0.005668,-0.018356,0.000294,0.001034,0.000406,785.000000,0.000000
1646675097.639230,,,,,,,,,,,,,,,,,,,,,0.056918,0.003916,0.019203,0.113835,-1.562964,0.038406,-0.569176,-0.039162,-0.192030,0.000000,-1.570796,0.000000,0.512258,0.035246,0.172827,0.000000,0.000000,0.000000,785.000000,0.000000,,,,,,,,,,,,,,,,,,,,
1646675097.640599,,,,,,,,,,,,,,,,,,,,,,,,,,,,,,,,,,,,,,,,,-0.000024,-0.000098,-0.000185,0.000010,0.000052,0.000146,0.000124,0.000648,0.001799,0.000782,0.002878,0.003122,-0.001091,-0.005767,-0.018694,0.000296,0.001035,0.000407,786.000000,0.000000
1646675097.640714,,,,,,,,,,,,,,,,,,,,,0.057001,0.003952,0.019310,0.114003,-1.562891,0.038620,-0.570015,-0.039524,-0.193102,0.000000,-1.570796,0.000000,0.513013,0.035572,0.173791,0.000000,0.000000,0.000000,786.000000,0.000000,,,,,,,,,,,,,,,,,,,,
1646675097.642620,,,,,,,,,,,,,,,,,,,,,,,,,,,,,,,,,,,,,,,,,-0.000024,-0.000096,-0.000143,0.000010,0.000057,0.000628,0.000126,0.000627,0.000517,0.000788,0.002885,0.003898,-0.001102,-0.005785,-0.019135,0.000298,0.001035,0.000381,787.000000,0.000000
1646675097.642762,,,,,,,,,,,,,,,,,,,,,0.057080,0.003987,0.019412,0.114160,-1.562823,0.038823,-0.570801,-0.039869,-0.194116,0.000000,-1.570796,0.000000,0.513721,0.035882,0.174704,0.000000,0.000000,0.000000,787.000000,0.000000,,,,,,,,,,,,,,,,,,,,
1646675097.644458,,,,,,,,,,,,,,,,,,,,,,,,,,,,,,,,,,,,,,,,,-0.000024,-0.000092,-0.000084,0.000010,0.000068,0.001319,0.000127,0.000584,-0.001281,0.000794,0.002893,0.004942,-0.001114,-0.005784,-0.019025,0.000300,0.001036,0.000346,788.000000,0.000000
1646675097.644498,,,,,,,,,,,,,,,,,,,,,0.057166,0.004025,0.019524,0.114333,-1.562746,0.039048,-0.571663,-0.040251,-0.195238,0.000000,-1.570796,0.000000,0.514497,0.036226,0.175714,0.000000,0.000000,0.000000,788.000000,0.000000,,,,,,,,,,,,,,,,,,,,
1646675097.646496,,,,,,,,,,,,,,,,,,,,,,,,,,,,,,,,,,,,,,,,,-0.000024,-0.000091,-0.000098,0.000010,0.000072,0.001205,0.000128,0.000575,-0.000895,0.000800,0.002903,0.004637,-0.001125,-0.005814,-0.017629,0.000303,0.001037,0.000369,789.000000,0.000000
1646675097.646526,,,,,,,,,,,,,,,,,,,,,0.057256,0.004065,0.019641,0.114511,-1.562666,0.039282,-0.572556,-0.040653,-0.196411,0.000000,-1.570796,0.000000,0.515301,0.036587,0.176770,0.000000,0.000000,0.000000,789.000000,0.000000,,,,,,,,,,,,,,,,,,,,
1646675097.648336,1864797.000000,1646675097.647927,-7.135279,-0.037758,-0.188180,-3.548958,-1.563065,0.038187,1.088159,0.003743,0.018796,-1.493654,-1.567931,0.003258,2.921580,0.028866,0.152179,-0.526968,0.001033,0.000401,,,,,,,,,,,,,,,,,,,,,,,,,,,,,,,,,,,,,,,,
1646675097.649127,,,,,,,,,,,,,,,,,,,,,,,,,,,,,,,,,,,,,,,,,-0.000025,-0.000092,-0.000156,0.000010,0.000072,0.000521,0.000129,0.000585,0.000896,0.000806,0.002911,0.003490,-0.001137,-0.005858,-0.016626,0.000305,0.001038,0.000442,790.000000,0.000000
1646675097.649173,,,,,,,,,,,,,,,,,,,,,0.057356,0.004111,0.019774,0.114712,-1.562574,0.039549,-0.573561,-0.041111,-0.197745,0.000000,-1.570796,0.000000,0.516205,0.037000,0.177970,0.000000,0.000000,0.000000,790.000000,0.000000,,,,,,,,,,,,,,,,,,,,
1646675097.650501,,,,,,,,,,,,,,,,,,,,,,,,,,,,,,,,,,,,,,,,,-0.000025,-0.000099,-0.000205,0.000011,0.000059,-0.000033,0.000130,0.000652,0.002248,0.000811,0.002917,0.002781,-0.001149,-0.005950,-0.017941,0.000307,0.001039,0.000510,791.000000,0.000000
1646675097.650627,,,,,,,,,,,,,,,,,,,,,0.057426,0.004144,0.019869,0.114853,-1.562509,0.039738,-0.574265,-0.041437,-0.198689,0.000000,-1.570796,0.000000,0.516838,0.037294,0.178820,0.000000,0.000000,0.000000,791.000000,0.000000,,,,,,,,,,,,,,,,,,,,
1646675097.652420,,,,,,,,,,,,,,,,,,,,,,,,,,,,,,,,,,,,,,,,,-0.000025,-0.000092,-0.000151,0.000011,0.000073,0.000289,0.000132,0.000585,0.001145,0.000817,0.002924,0.003397,-0.001161,-0.005925,-0.019873,0.000309,0.001040,0.000514,792.000000,0.000000
1646675097.652505,,,,,,,,,,,,,,,,,,,,,0.057510,0.004183,0.019982,0.115021,-1.562430,0.039964,-0.575103,-0.041830,-0.199822,0.000000,-1.570796,0.000000,0.517593,0.037647,0.179840,0.000000,0.000000,0.000000,792.000000,0.000000,,,,,,,,,,,,,,,,,,,,
1646675097.654559,,,,,,,,,,,,,,,,,,,,,,,,,,,,,,,,,,,,,,,,,-0.000025,-0.000092,-0.000125,0.000011,0.000075,0.000596,0.000133,0.000581,0.000403,0.000823,0.002931,0.003846,-0.001173,-0.005959,-0.019730,0.000311,0.001041,0.000489,793.000000,0.000000
1646675097.654690,,,,,,,,,,,,,,,,,,,,,0.057597,0.004224,0.020100,0.115193,-1.562348,0.040200,-0.575967,-0.042241,-0.201001,0.000000,-1.570796,0.000000,0.518370,0.038017,0.180901,0.000000,0.000000,0.000000,793.000000,0.000000,,,,,,,,,,,,,,,,,,,,
1646675097.656587,,,,,,,,,,,,,,,,,,,,,,,,,,,,,,,,,,,,,,,,,-0.000025,-0.000093,-0.000163,0.000011,0.000074,0.000210,0.000134,0.000593,0.001614,0.000829,0.002938,0.003040,-0.001185,-0.006005,-0.017484,0.000313,0.001042,0.000496,794.000000,0.000000
1646675097.656619,,,,,,,,,,,,,,,,,,,,,0.057680,0.004264,0.020215,0.115360,-1.562268,0.040430,-0.576799,-0.042642,-0.202149,0.000000,-1.570796,0.000000,0.519119,0.038378,0.181934,0.000000,0.000000,0.000000,794.000000,0.000000,,,,,,,,,,,,,,,,,,,,
1646675097.658319,1864798.000000,1646675097.657929,-8.121920,-0.040852,-0.197544,-3.601218,-1.562435,0.040027,1.204856,0.004051,0.019717,-1.525394,-1.567873,0.003397,3.099034,0.031369,0.158947,-0.531724,0.001040,0.000514,,,,,,,,,,,,,,,,,,,,,,,,,,,,,,,,,,,,,,,,
1646675097.659040,,,,,,,,,,,,,,,,,,,,,,,,,,,,,,,,,,,,,,,,,-0.000026,-0.000094,-0.000187,0.000011,0.000075,-0.000142,0.000135,0.000595,0.002538,0.000835,0.002943,0.002448,-0.001197,-0.006038,-0.017070,0.000315,0.001043,0.000517,795.000000,0.000000
1646675097.659086,,,,,,,,,,,,,,,,,,,,,0.057775,0.004311,0.020348,0.115550,-1.562175,0.040695,-0.577751,-0.043109,-0.203476,0.000000,-1.570796,0.000000,0.519976,0.038798,0.183129,0.000000,0.000000,0.000000,795.000000,0.000000,,,,,,,,,,,,,,,,,,,,
1646675097.660312,,,,,,,,,,,,,,,,,,,,,,,,,,,,,,,,,,,,,,,,,-0.000026,-0.000100,-0.000198,0.000011,0.000062,-0.000289,0.000136,0.000661,0.002795,0.000841,0.002948,0.002462,-0.001209,-0.006129,-0.019375,0.000317,0.001044,0.000533,796.000000,0.000000
1646675097.660396,,,,,,,,,,,,,,,,,,,,,0.057843,0.004345,0.020444,0.115687,-1.562107,0.040887,-0.578434,-0.043448,-0.204437,0.000000,-1.570796,0.000000,0.520591,0.039103,0.183994,0.000000,0.000000,0.000000,796.000000,0.000000,,,,,,,,,,,,,,,,,,,,
1646675097.662463,,,,,,,,,,,,,,,,,,,,,,,,,,,,,,,,,,,,,,,,,-0.000026,-0.000094,-0.000135,0.000011,0.000076,0.000190,0.000138,0.000597,0.001374,0.000847,0.002954,0.003283,-0.001221,-0.006108,-0.020760,0.000319,0.001045,0.000499,797.000000,0.000000
1646675097.662544,,,,,,,,,,,,,,,,,,,,,0.057928,0.004387,0.020563,0.115855,-1.562022,0.041127,-0.579277,-0.043872,-0.205634,0.000000,-1.570796,0.000000,0.521349,0.039484,0.185071,0.000000,0.000000,0.000000,797.000000,0.000000,,,,,,,,,,,,,,,,,,,,
1646675097.664437,,,,,,,,,,,,,,,,,,,,,,,,,,,,,,,,,,,,,,,,,-0.000026,-0.000095,-0.000120,0.000012,0.000074,0.000505,0.000139,0.000613,0.000753,0.000853,0.002961,0.003671,-0.001234,-0.006160,-0.019481,0.000321,0.001046,0.000451,798.000000,0.000000
1646675097.664539,,,,,,,,,,,,,,,,,,,,,0.058007,0.004428,0.020678,0.116015,-1.561941,0.041355,-0.580073,-0.044278,-0.206776,0.000000,-1.570796,0.000000,0.522065,0.039850,0.186098,0.000000,0.000000,0.000000,798.000000,0.000000,,,,,,,,,,,,,,,,,,,,
1646675097.666412,,,,,,,,,,,,,,,,,,,,,,,,,,,,,,,,,,,,,,,,,-0.000026,-0.000095,-0.000145,0.000012,0.000076,0.000254,0.000140,0.000609,0.001588,0.000859,0.002968,0.003086,-0.001246,-0.006191,-0.017300,0.000323,0.001046,0.000446,799.000000,0.000000
1646675097.666504,,,,,,,,,,,,,,,,,,,,,0.058088,0.004469,0.020794,0.116176,-1.561857,0.041588,-0.580878,-0.044694,-0.207942,0.000000,-1.570796,0.000000,0.522790,0.040225,0.187148,0.000000,0.000000,0.000000,799.000000,0.000000,,,,,,,,,,,,,,,,,,,,
1646675097.668468,,,,,,,,,,,,,,,,,,,,,,,,,,,,,,,,,,,,,,,,,-0.000027,-0.000095,-0.000159,0.000012,0.000076,0.000014,0.000141,0.000614,0.002140,0.000864,0.002973,0.002764,-0.001258,-0.006228,-0.017747,0.000326,0.001047,0.000466,800.000000,0.000000
1646675097.669351,,,,,,,,,,,,,,,,,,,,,0.058165,0.004510,0.020908,0.116331,-1.561776,0.041815,-0.581653,-0.045102,-0.209077,0.000000,-1.570796,0.000000,0.523488,0.040591,0.188170,0.000000,0.000000,0.000000,800.000000,0.000000,,,,,,,,,,,,,,,,,,,,
1646675097.669378,1864799.000000,1646675097.667987,-8.121920,-0.040852,-0.197544,-3.601218,-1.562435,0.040027,1.204856,0.004051,0.019717,-1.525394,-1.567873,0.003397,3.099034,0.031369,0.158947,-0.531724,0.001040,0.000514,,,,,,,,,,,,,,,,,,,,,,,,,,,,,,,,,,,,,,,,
1646675097.670423,,,,,,,,,,,,,,,,,,,,,,,,,,,,,,,,,,,,,,,,,-0.000027,-0.000095,-0.000154,0.000012,0.000078,-0.000125,0.000143,0.000609,0.002275,0.000870,0.002979,0.002731,-0.001271,-0.006257,-0.019805,0.000328,0.001048,0.000488,801.000000,0.000000
1646675097.670509,,,,,,,,,,,,,,,,,,,,,0.058246,0.004553,0.021027,0.116492,-1.561690,0.042054,-0.582460,-0.045531,-0.210270,0.000000,-1.570796,0.000000,0.524214,0.040978,0.189243,0.000000,0.000000,0.000000,801.000000,0.000000,,,,,,,,,,,,,,,,,,,,
1646675097.672445,,,,,,,,,,,,,,,,,,,,,,,,,,,,,,,,,,,,,,,,,-0.000027,-0.000096,-0.000158,0.000012,0.000075,-0.000217,0.000144,0.000624,0.002489,0.000876,0.002984,0.002643,-0.001284,-0.006306,-0.020333,0.000330,0.001049,0.000483,802.000000,0.000000
1646675097.672472,,,,,,,,,,,,,,,,,,,,,0.058324,0.004595,0.021143,0.116647,-1.561606,0.042286,-0.583236,-0.045950,-0.211429,0.000000,-1.570796,0.000000,0.524912,0.041355,0.190286,0.000000,0.000000,0.000000,802.000000,0.000000,,,,,,,,,,,,,,,,,,,,
1646675097.674683,,,,,,,,,,,,,,,,,,,,,,,,,,,,,,,,,,,,,,,,,-0.000027,-0.000096,-0.000161,0.000012,0.000075,-0.000218,0.000145,0.000627,0.002632,0.000882,0.002989,0.002533,-0.001296,-0.006343,-0.019124,0.000332,0.001050,0.000452,803.000000,0.000000
1646675097.674730,,,,,,,,,,,,,,,,,,,,,0.058400,0.004637,0.021258,0.116799,-1.561523,0.042515,-0.583997,-0.046368,-0.212577,0.000000,-1.570796,0.000000,0.525597,0.041731,0.191319,0.000000,0.000000,0.000000,803.000000,0.000000,,,,,,,,,,,,,,,,,,,,
1646675097.676327,,,,,,,,,,,,,,,,,,,,,,,,,,,,,,,,,,,,,,,,,-0.000027,-0.000096,-0.000152,0.000013,0.000076,-0.000116,0.000146,0.000625,0.002438,0.000888,0.002995,0.002649,-0.001309,-0.006375,-0.018605,0.000334,0.001051,0.000420,804.000000,0.000000
1646675097.676409,,,,,,,,,,,,,,,,,,,,,0.058476,0.004679,0.021374,0.116952,-1.561438,0.042749,-0.584762,-0.046793,-0.213743,0.000000,-1.570796,0.000000,0.526286,0.042113,0.192368,0.000000,0.000000,0.000000,804.000000,0.000000,,,,,,,,,,,,,,,,,,,,
1646675097.678419,1864800.000000,1646675097.678030,-7.846618,-0.044493,-0.206802,-3.799874,-1.561698,0.041691,1.161459,0.004416,0.020754,-1.553985,-1.567817,0.002731,3.237616,0.034335,0.168364,-0.535945,0.001048,0.000488,,,,,,,,,,,,,,,,,,,,,,,,,,,,,,,,,,,,,,,,
1646675097.679045,,,,,,,,,,,,,,,,,,,,,,,,,,,,,,,,,,,,,,,,,-0.000027,-0.000096,-0.000144,0.000013,0.000076,-0.000079,0.000148,0.000628,0.002280,0.000894,0.003000,0.002788,-0.001322,-0.006412,-0.019410,0.000336,0.001052,0.000407,805.000000,0.000000
1646675097.679076,,,,,,,,,,,,,,,,,,,,,0.058555,0.004724,0.021495,0.117109,-1.561349,0.042990,-0.585546,-0.047235,-0.214950,0.000000,-1.570796,0.000000,0.526991,0.042512,0.193455,0.000000,0.000000,0.000000,805.000000,0.000000,,,,,,,,,,,,,,,,,,,,
1646675097.680403,,,,,,,,,,,,,,,,,,,,,,,,,,,,,,,,,,,,,,,,,-0.000028,-0.000097,-0.000146,0.000013,0.000073,-0.000116,0.000149,0.000647,0.002345,0.000900,0.003006,0.002808,-0.001335,-0.006464,-0.020052,0.000338,0.001053,0.000399,806.000000,0.000000
1646675097.680495,,,,,,,,,,,,,,,,,,,,,0.058629,0.004766,0.021611,0.117258,-1.561264,0.043222,-0.586290,-0.047661,-0.216108,0.000000,-1.570796,0.000000,0.527661,0.042895,0.194497,0.000000,0.000000,0.000000,806.000000,0.000000,,,,,,,,,,,,,,,,,,,,
1646675097.682535,,,,,,,,,,,,,,,,,,,,,,,,,,,,,,,,,,,,,,,,,-0.000028,-0.000097,-0.000140,0.000013,0.000074,-0.000037,0.000150,0.000646,0.002182,0.000906,0.003011,0.002913,-0.001348,-0.006499,-0.019748,0.000340,0.001054,0.000377,807.000000,0.000000
1646675097.682603,,,,,,,,,,,,,,,,,,,,,0.058702,0.004809,0.021726,0.117405,-1.561179,0.043452,-0.587023,-0.048087,-0.217261,0.000000,-1.570796,0.000000,0.528321,0.043278,0.195535,0.000000,0.000000,0.000000,807.000000,0.000000,,,,,,,,,,,,,,,,,,,,
1646675097.684423,,,,,,,,,,,,,,,,,,,,,,,,,,,,,,,,,,,,,,,,,-0.000028,-0.000097,-0.000131,0.000013,0.000076,0.000108,0.000151,0.000643,0.001865,0.000912,0.003017,0.003107,-0.001361,-0.006531,-0.019288,0.000342,0.001054,0.000351,808.000000,0.000000
1646675097.684536,,,,,,,,,,,,,,,,,,,,,0.058778,0.004853,0.021846,0.117556,-1.561090,0.043692,-0.587779,-0.048532,-0.218461,0.000000,-1.570796,0.000000,0.529001,0.043679,0.196615,0.000000,0.000000,0.000000,808.000000,0.000000,,,,,,,,,,,,,,,,,,,,
1646675097.686462,,,,,,,,,,,,,,,,,,,,,,,,,,,,,,,,,,,,,,,,,-0.000028,-0.000098,-0.000134,0.000013,0.000074,0.000114,0.000153,0.000656,0.001868,0.000918,0.003024,0.003140,-0.001374,-0.006578,-0.019307,0.000344,0.001055,0.000343,809.000000,0.000000
1646675097.686509,,,,,,,,,,,,,,,,,,,,,0.058851,0.004897,0.021964,0.117702,-1.561002,0.043928,-0.588511,-0.048970,-0.219638,0.000000,-1.570796,0.000000,0.529660,0.044073,0.197674,0.000000,0.000000,0.000000,809.000000,0.000000,,,,,,,,,,,,,,,,,,,,
1646675097.688706,1864801.000000,1646675097.688002,-8.123158,-0.047876,-0.216593,-3.809763,-1.561016,0.043806,1.167133,0.004755,0.021713,-1.578010,-1.567773,0.003140,3.399326,0.037100,0.177308,-0.538753,0.001055,0.000343,,,,,,,,,,,,,,,,,,,,,,,,,,,,,,,,,,,,,,,,
1646675097.688747,,,,,,,,,,,,,,,,,,,,,,,,,,,,,,,,,,,,,,,,,-0.000028,-0.000098,-0.000134,0.000013,0.000074,0.000108,0.000154,0.000660,0.001855,0.000925,0.003030,0.003174,-0.001387,-0.006617,-0.019628,0.000347,0.001056,0.000343,810.000000,0.000000
1646675097.689365,,,,,,,,,,,,,,,,,,,,,0.058922,0.004940,0.022079,0.117844,-1.560916,0.044158,-0.589221,-0.049401,-0.220789,0.000000,-1.570796,0.000000,0.530298,0.044460,0.198710,0.000000,0.000000,0.000000,810.000000,0.000000,,,,,,,,,,,,,,,,,,,,
1646675097.690381,,,,,,,,,,,,,,,,,,,,,,,,,,,,,,,,,,,,,,,,,-0.000029,-0.000098,-0.000127,0.000014,0.000077,0.000177,0.000155,0.000653,0.001654,0.000931,0.003036,0.003305,-0.001401,-0.006648,-0.019789,0.000349,0.001056,0.000338,811.000000,0.000000
1646675097.690410,,,,,,,,,,,,,,,,,,,,,0.058994,0.004984,0.022197,0.117988,-1.560828,0.044393,-0.589939,-0.049843,-0.221966,0.000000,-1.570796,0.000000,0.530945,0.044858,0.199770,0.000000,0.000000,0.000000,811.000000,0.000000,,,,,,,,,,,,,,,,,,,,
1646675097.692356,,,,,,,,,,,,,,,,,,,,,,,,,,,,,,,,,,,,,,,,,-0.000029,-0.000098,-0.000131,0.000014,0.000077,0.000163,0.000157,0.000656,0.001716,0.000937,0.003043,0.003275,-0.001414,-0.006687,-0.019564,0.000351,0.001057,0.000336,812.000000,0.000000
1646675097.692458,,,,,,,,,,,,,,,,,,,,,0.059065,0.005029,0.022315,0.118130,-1.560739,0.044629,-0.590651,-0.050288,-0.223147,0.000000,-1.570796,0.000000,0.531586,0.045259,0.200832,0.000000,0.000000,0.000000,812.000000,0.000000,,,,,,,,,,,,,,,,,,,,
1646675097.694488,,,,,,,,,,,,,,,,,,,,,,,,,,,,,,,,,,,,,,,,,-0.000029,-0.000098,-0.000141,0.000014,0.000077,0.000064,0.000158,0.000659,0.001991,0.000943,0.003049,0.003111,-0.001427,-0.006725,-0.019330,0.000353,0.001058,0.000340,813.000000,0.000000
1646675097.694520,,,,,,,,,,,,,,,,,,,,,0.059136,0.005074,0.022433,0.118272,-1.560649,0.044866,-0.591358,-0.050736,-0.224332,0.000000,-1.570796,0.000000,0.532222,0.045663,0.201898,0.000000,0.000000,0.000000,813.000000,0.000000,,,,,,,,,,,,,,,,,,,,
1646675097.696409,,,,,,,,,,,,,,,,,,,,,,,,,,,,,,,,,,,,,,,,,-0.000029,-0.000098,-0.000146,0.000014,0.000077,-0.000008,0.000159,0.000665,0.002157,0.000949,0.003056,0.003031,-0.001441,-0.006765,-0.019552,0.000355,0.001058,0.000346,814.000000,0.000000
1646675097.696435,,,,,,,,,,,,,,,,,,,,,0.059207,0.005120,0.022554,0.118414,-1.560557,0.045108,-0.592071,-0.051195,-0.225539,0.000000,-1.570796,0.000000,0.532864,0.046076,0.202985,0.000000,0.000000,0.000000,814.000000,0.000000,,,,,,,,,,,,,,,,,,,,
1646675097.699951,1864802.000000,1646675097.698046,-8.123158,-0.047876,-0.216593,-3.809763,-1.561016,0.043806,1.167133,0.004755,0.021713,-1.578010,-1.567773,0.003140,3.399326,0.037100,0.177308,-0.538753,0.001055,0.000343,,,,,,,,,,,,,,,,,,,,,,,,,,,,,,,,,,,,,,,,
1646675097.699987,,,,,,,,,,,,,,,,,,,,,,,,,,,,,,,,,,,,,,,,,-0.000029,-0.000100,-0.000149,0.000014,0.000075,-0.000024,0.000161,0.000678,0.002181,0.000955,0.003062,0.003059,-0.001455,-0.006813,-0.019977,0.000357,0.001059,0.000347,815.000000,0.000000
1646675097.700011,,,,,,,,,,,,,,,,,,,,,0.059275,0.005164,0.022670,0.118550,-1.560469,0.045340,-0.592749,-0.051639,-0.226701,0.000000,-1.570796,0.000000,0.533474,0.046475,0.204031,0.000000,0.000000,0.000000,815.000000,0.000000,,,,,,,,,,,,,,,,,,,,
1646675097.703846,,,,,,,,,,,,,,,,,,,,,,,,,,,,,,,,,,,,,,,,,-0.000030,-0.000099,-0.000137,0.000014,0.000078,0.000164,0.000163,0.000676,0.001734,0.000967,0.003074,0.003352,-0.001482,-0.006884,-0.019814,0.000361,0.001060,0.000325,817.000000,0.000000
1646675097.703884,,,,,,,,,,,,,,,,,,,,,0.059411,0.005255,0.022908,0.118823,-1.560286,0.045815,-0.594113,-0.052551,-0.229075,0.000000,-1.570796,0.000000,0.534702,0.047296,0.206168,0.000000,0.000000,0.000000,817.000000,0.000000,,,,,,,,,,,,,,,,,,,,
1646675097.704303,,,,,,,,,,,,,,,,,,,,,,,,,,,,,,,,,,,,,,,,,-0.000030,-0.000100,-0.000142,0.000015,0.000078,0.000140,0.000165,0.000681,0.001825,0.000973,0.003081,0.003308,-0.001496,-0.006925,-0.019577,0.000363,0.001061,0.000325,818.000000,0.000000
1646675097.704367,,,,,,,,,,,,,,,,,,,,,0.059478,0.005301,0.023026,0.118957,-1.560195,0.046052,-0.594783,-0.053009,-0.230261,0.000000,-1.570796,0.000000,0.535305,0.047708,0.207235,0.000000,0.000000,0.000000,818.000000,0.000000,,,,,,,,,,,,,,,,,,,,
1646675097.706521,,,,,,,,,,,,,,,,,,,,,,,,,,,,,,,,,,,,,,,,,-0.000030,-0.000100,-0.000146,0.000015,0.000078,0.000107,0.000166,0.000684,0.001898,0.000980,0.003088,0.003281,-0.001510,-0.006963,-0.019713,0.000366,0.001062,0.000331,819.000000,0.000000
1646675097.706613,,,,,,,,,,,,,,,,,,,,,0.059546,0.005348,0.023147,0.119091,-1.560101,0.046294,-0.595457,-0.053477,-0.231468,0.000000,-1.570796,0.000000,0.535912,0.048129,0.208321,0.000000,0.000000,0.000000,819.000000,0.000000,,,,,,,,,,,,,,,,,,,,
1646675097.708233,,,,,,,,,,,,,,,,,,,,,,,,,,,,,,,,,,,,,,,,,-0.000030,-0.000101,-0.000149,0.000015,0.000077,0.000092,0.000168,0.000694,0.001918,0.000986,0.003094,0.003303,-0.001524,-0.007008,-0.020034,0.000368,0.001062,0.000336,820.000000,0.000000
1646675097.708330,,,,,,,,,,,,,,,,,,,,,0.059611,0.005394,0.023266,0.119223,-1.560008,0.046532,-0.596114,-0.053940,-0.232658,0.000000,-1.570796,0.000000,0.536503,0.048546,0.209392,0.000000,0.000000,0.000000,820.000000,0.000000,,,,,,,,,,,,,,,,,,,,
1646675097.708446,1864803.000000,1646675097.707989,-8.471883,-0.051416,-0.226149,-3.838963,-1.560300,0.045740,1.191152,0.005110,0.022652,-1.605365,-1.567722,0.003352,3.562038,0.039999,0.185281,-0.541650,0.001060,0.000325,,,,,,,,,,,,,,,,,,,,,,,,,,,,,,,,,,,,,,,,
1646675097.710243,,,,,,,,,,,,,,,,,,,,,,,,,,,,,,,,,,,,,,,,,-0.000031,-0.000101,-0.000147,0.000015,0.000077,0.000135,0.000169,0.000697,0.001809,0.000992,0.003101,0.003388,-0.001538,-0.007048,-0.020111,0.000370,0.001063,0.000335,821.000000,0.000000
1646675097.710268,,,,,,,,,,,,,,,,,,,,,0.059677,0.005441,0.023385,0.119353,-1.559915,0.046770,-0.596766,-0.054407,-0.233851,0.000000,-1.570796,0.000000,0.537089,0.048966,0.210466,0.000000,0.000000,0.000000,821.000000,0.000000,,,,,,,,,,,,,,,,,,,,
1646675097.712249,,,,,,,,,,,,,,,,,,,,,,,,,,,,,,,,,,,,,,,,,-0.000031,-0.000101,-0.000144,0.000015,0.000078,0.000214,0.000170,0.000700,0.001634,0.000998,0.003108,0.003510,-0.001552,-0.007088,-0.019957,0.000372,0.001064,0.000331,822.000000,0.000000
1646675097.712276,,,,,,,,,,,,,,,,,,,,,0.059741,0.005487,0.023504,0.119481,-1.559822,0.047008,-0.597407,-0.054873,-0.235039,0.000000,-1.570796,0.000000,0.537667,0.049386,0.211535,0.000000,0.000000,0.000000,822.000000,0.000000,,,,,,,,,,,,,,,,,,,,
1646675097.714276,,,,,,,,,,,,,,,,,,,,,,,,,,,,,,,,,,,,,,,,,-0.000031,-0.000101,-0.000143,0.000015,0.000079,0.000261,0.000172,0.000701,0.001532,0.001004,0.003115,0.003581,-0.001566,-0.007126,-0.019821,0.000374,0.001064,0.000332,823.000000,0.000000
1646675097.714349,,,,,,,,,,,,,,,,,,,,,0.059806,0.005535,0.023625,0.119611,-1.559726,0.047251,-0.598056,-0.055353,-0.236254,0.000000,-1.570796,0.000000,0.538250,0.049817,0.212629,0.000000,0.000000,0.000000,823.000000,0.000000,,,,,,,,,,,,,,,,,,,,
1646675097.716392,,,,,,,,,,,,,,,,,,,,,,,,,,,,,,,,,,,,,,,,,-0.000031,-0.000102,-0.000148,0.000016,0.000078,0.000252,0.000173,0.000712,0.001562,0.001011,0.003122,0.003589,-0.001581,-0.007172,-0.019874,0.000376,0.001065,0.000340,824.000000,0.000000
1646675097.716490,,,,,,,,,,,,,,,,,,,,,0.059868,0.005582,0.023744,0.119736,-1.559632,0.047488,-0.598681,-0.055822,-0.237439,0.000000,-1.570796,0.000000,0.538813,0.050240,0.213696,0.000000,0.000000,0.000000,824.000000,0.000000,,,,,,,,,,,,,,,,,,,,
1646675097.718298,,,,,,,,,,,,,,,,,,,,,,,,,,,,,,,,,,,,,,,,,-0.000031,-0.000102,-0.000147,0.000016,0.000079,0.000272,0.000175,0.000710,0.001494,0.001017,0.003129,0.003641,-0.001595,-0.007208,-0.020002,0.000378,0.001066,0.000349,825.000000,0.000000
1646675097.718400,1864804.000000,1646675097.717962,-8.471883,-0.051416,-0.226149,-3.838963,-1.560300,0.045740,1.191152,0.005110,0.022652,-1.605365,-1.567722,0.003352,3.562038,0.039999,0.185281,-0.541650,0.001060,0.000325,,,,,,,,,,,,,,,,,,,,,,,,,,,,,,,,,,,,,,,,
1646675097.718427,,,,,,,,,,,,,,,,,,,,,0.059930,0.005629,0.023862,0.119859,-1.559538,0.047724,-0.599296,-0.056290,-0.238619,0.000000,-1.570796,0.000000,0.539367,0.050661,0.214757,0.000000,0.000000,0.000000,825.000000,0.000000,,,,,,,,,,,,,,,,,,,,
1646675097.720264,,,,,,,,,,,,,,,,,,,,,,,,,,,,,,,,,,,,,,,,,-0.000032,-0.000102,-0.000144,0.000016,0.000081,0.000308,0.000176,0.000706,0.001393,0.001023,0.003137,0.003706,-0.001610,-0.007242,-0.020027,0.000381,0.001066,0.000356,826.000000,0.000000
1646675097.720781,,,,,,,,,,,,,,,,,,,,,0.059992,0.005677,0.023983,0.119984,-1.559442,0.047966,-0.599921,-0.056774,-0.239830,0.000000,-1.570796,0.000000,0.539929,0.051096,0.215847,0.000000,0.000000,0.000000,826.000000,0.000000,,,,,,,,,,,,,,,,,,,,
1646675097.722223,,,,,,,,,,,,,,,,,,,,,,,,,,,,,,,,,,,,,,,,,-0.000032,-0.000103,-0.000153,0.000016,0.000081,0.000236,0.000177,0.000714,0.001598,0.001030,0.003144,0.003593,-0.001624,-0.007286,-0.019883,0.000383,0.001067,0.000369,827.000000,0.000000
1646675097.722279,,,,,,,,,,,,,,,,,,,,,0.060053,0.005725,0.024103,0.120106,-1.559346,0.048205,-0.600530,-0.057253,-0.241027,0.000000,-1.570796,0.000000,0.540477,0.051528,0.216924,0.000000,0.000000,0.000000,827.000000,0.000000,,,,,,,,,,,,,,,,,,,,
1646675097.724363,,,,,,,,,,,,,,,,,,,,,,,,,,,,,,,,,,,,,,,,,-0.000032,-0.000103,-0.000160,0.000016,0.000081,0.000151,0.000179,0.000716,0.001815,0.001036,0.003151,0.003465,-0.001639,-0.007324,-0.019840,0.000385,0.001068,0.000383,828.000000,0.000000
1646675097.724428,,,,,,,,,,,,,,,,,,,,,0.060114,0.005774,0.024223,0.120227,-1.559249,0.048446,-0.601136,-0.057737,-0.242231,0.000000,-1.570796,0.000000,0.541023,0.051964,0.218008,0.000000,0.000000,0.000000,828.000000,0.000000,,,,,,,,,,,,,,,,,,,,
1646675097.726260,,,,,,,,,,,,,,,,,,,,,,,,,,,,,,,,,,,,,,,,,-0.000032,-0.000103,-0.000162,0.000016,0.000081,0.000126,0.000180,0.000720,0.001861,0.001042,0.003158,0.003458,-0.001654,-0.007365,-0.020086,0.000387,0.001069,0.000392,829.000000,0.000000
1646675097.726328,,,,,,,,,,,,,,,,,,,,,0.060174,0.005823,0.024345,0.120349,-1.559150,0.048691,-0.601744,-0.058231,-0.243453,0.000000,-1.570796,0.000000,0.541570,0.052408,0.219108,0.000000,0.000000,0.000000,829.000000,0.000000,,,,,,,,,,,,,,,,,,,,
1646675097.728227,1864805.000000,1646675097.727947,-8.865103,-0.055584,-0.237226,-3.976416,-1.559457,0.048032,1.221172,0.005527,0.023718,-1.638837,-1.567660,0.003706,3.744261,0.043420,0.194730,-0.544695,0.001066,0.000356,,,,,,,,,,,,,,,,,,,,,,,,,,,,,,,,,,,,,,,,
1646675097.728292,,,,,,,,,,,,,,,,,,,,,,,,,,,,,,,,,,,,,,,,,-0.000032,-0.000104,-0.000164,0.000017,0.000080,0.000125,0.000182,0.000732,0.001863,0.001048,0.003165,0.003488,-0.001668,-0.007413,-0.020307,0.000389,0.001069,0.000398,830.000000,0.000000
1646675097.728307,,,,,,,,,,,,,,,,,,,,,0.060233,0.005872,0.024466,0.120467,-1.559053,0.048931,-0.602335,-0.058718,-0.244656,0.000000,-1.570796,0.000000,0.542101,0.052847,0.220191,0.000000,0.000000,0.000000,830.000000,0.000000,,,,,,,,,,,,,,,,,,,,
1646675097.730200,,,,,,,,,,,,,,,,,,,,,,,,,,,,,,,,,,,,,,,,,-0.000033,-0.000104,-0.000159,0.000017,0.000081,0.000198,0.000183,0.000735,0.001691,0.001055,0.003172,0.003608,-0.001683,-0.007453,-0.020278,0.000391,0.001070,0.000396,831.000000,0.000000
1646675097.730225,,,,,,,,,,,,,,,,,,,,,0.060292,0.005920,0.024585,0.120583,-1.558955,0.049170,-0.602915,-0.059205,-0.245852,0.000000,-1.570796,0.000000,0.542624,0.053284,0.221266,0.000000,0.000000,0.000000,831.000000,0.000000,,,,,,,,,,,,,,,,,,,,
1646675097.732228,,,,,,,,,,,,,,,,,,,,,,,,,,,,,,,,,,,,,,,,,-0.000033,-0.000104,-0.000152,0.000017,0.000082,0.000307,0.000185,0.000734,0.001435,0.001061,0.003179,0.003773,-0.001698,-0.007489,-0.020145,0.000393,0.001071,0.000392,832.000000,0.000000
1646675097.732257,,,,,,,,,,,,,,,,,,,,,0.060350,0.005970,0.024706,0.120699,-1.558856,0.049412,-0.603495,-0.059699,-0.247062,0.000000,-1.570796,0.000000,0.543146,0.053729,0.222355,0.000000,0.000000,0.000000,832.000000,0.000000,,,,,,,,,,,,,,,,,,,,
1646675097.734219,,,,,,,,,,,,,,,,,,,,,,,,,,,,,,,,,,,,,,,,,-0.000033,-0.000105,-0.000152,0.000017,0.000082,0.000333,0.000186,0.000738,0.001385,0.001068,0.003187,0.003816,-0.001713,-0.007531,-0.020049,0.000395,0.001072,0.000397,833.000000,0.000000
1646675097.734292,,,,,,,,,,,,,,,,,,,,,0.060406,0.006019,0.024826,0.120813,-1.558758,0.049653,-0.604064,-0.060192,-0.248264,0.000000,-1.570796,0.000000,0.543658,0.054173,0.223437,0.000000,0.000000,0.000000,833.000000,0.000000,,,,,,,,,,,,,,,,,,,,
1646675097.736239,,,,,,,,,,,,,,,,,,,,,,,,,,,,,,,,,,,,,,,,,-0.000033,-0.000105,-0.000155,0.000017,0.000083,0.000301,0.000188,0.000739,0.001461,0.001074,0.003195,0.003777,-0.001728,-0.007569,-0.020049,0.000398,0.001073,0.000409,834.000000,0.000000
1646675097.736901,,,,,,,,,,,,,,,,,,,,,0.060464,0.006070,0.024949,0.120927,-1.558657,0.049897,-0.604635,-0.060696,-0.249486,0.000000,-1.570796,0.000000,0.544172,0.054626,0.224537,0.000000,0.000000,0.000000,834.000000,0.000000,,,,,,,,,,,,,,,,,,,,
1646675097.738208,1864806.000000,1646675097.737927,-9.196226,-0.059453,-0.246803,-4.087496,-1.558675,0.049954,1.248767,0.005914,0.024671,-1.669869,-1.567602,0.003777,3.906964,0.046604,0.203388,-0.548167,0.001073,0.000409,,,,,,,,,,,,,,,,,,,,,,,,,,,,,,,,,,,,,,,,
1646675097.738271,,,,,,,,,,,,,,,,,,,,,,,,,,,,,,,,,,,,,,,,,-0.000034,-0.000106,-0.000160,0.000017,0.000083,0.000253,0.000189,0.000748,0.001580,0.001080,0.003202,0.003725,-0.001744,-0.007614,-0.020155,0.000400,0.001074,0.000423,835.000000,0.000000
1646675097.738286,,,,,,,,,,,,,,,,,,,,,0.060519,0.006120,0.025069,0.121039,-1.558557,0.050139,-0.605193,-0.061195,-0.250694,0.000000,-1.570796,0.000000,0.544674,0.055076,0.225625,0.000000,0.000000,0.000000,835.000000,0.000000,,,,,,,,,,,,,,,,,,,,
1646675097.740245,,,,,,,,,,,,,,,,,,,,,,,,,,,,,,,,,,,,,,,,,-0.000034,-0.000106,-0.000161,0.000018,0.000083,0.000241,0.000191,0.000750,0.001601,0.001087,0.003210,0.003725,-0.001759,-0.007654,-0.020253,0.000402,0.001074,0.000433,836.000000,0.000000
1646675097.740280,,,,,,,,,,,,,,,,,,,,,0.060573,0.006168,0.025187,0.121146,-1.558459,0.050375,-0.605731,-0.061684,-0.251873,0.000000,-1.570796,0.000000,0.545158,0.055516,0.226686,0.000000,0.000000,0.000000,836.000000,0.000000,,,,,,,,,,,,,,,,,,,,
1646675097.742243,,,,,,,,,,,,,,,,,,,,,,,,,,,,,,,,,,,,,,,,,-0.000034,-0.000105,-0.000155,0.000018,0.000087,0.000279,0.000192,0.000740,0.001494,0.001093,0.003217,0.003784,-0.001774,-0.007683,-0.020259,0.000404,0.001075,0.000439,837.000000,0.000000
1646675097.742304,,,,,,,,,,,,,,,,,,,,,0.060629,0.006220,0.025312,0.121258,-1.558356,0.050624,-0.606291,-0.062203,-0.253118,0.000000,-1.570796,0.000000,0.545662,0.055983,0.227806,0.000000,0.000000,0.000000,837.000000,0.000000,,,,,,,,,,,,,,,,,,,,
1646675097.744207,,,,,,,,,,,,,,,,,,,,,,,,,,,,,,,,,,,,,,,,,-0.000034,-0.000107,-0.000165,0.000018,0.000084,0.000198,0.000194,0.000757,0.001728,0.001100,0.003225,0.003667,-0.001790,-0.007735,-0.020179,0.000406,0.001076,0.000449,838.000000,0.000000
1646675097.744255,,,,,,,,,,,,,,,,,,,,,0.060683,0.006271,0.025432,0.121365,-1.558255,0.050865,-0.606827,-0.062708,-0.254324,0.000000,-1.570796,0.000000,0.546144,0.056437,0.228892,0.000000,0.000000,0.000000,838.000000,0.000000,,,,,,,,,,,,,,,,,,,,
1646675097.746234,,,,,,,,,,,,,,,,,,,,,,,,,,,,,,,,,,,,,,,,,-0.000034,-0.000107,-0.000168,0.000018,0.000085,0.000134,0.000195,0.000758,0.001890,0.001106,0.003232,0.003573,-0.001805,-0.007773,-0.020177,0.000408,0.001077,0.000459,839.000000,0.000000
1646675097.746301,,,,,,,,,,,,,,,,,,,,,0.060736,0.006322,0.025555,0.121473,-1.558152,0.051110,-0.607364,-0.063222,-0.255549,0.000000,-1.570796,0.000000,0.546627,0.056900,0.229994,0.000000,0.000000,0.000000,839.000000,0.000000,,,,,,,,,,,,,,,,,,,,
1646675097.748378,1864807.000000,1646675097.747953,-9.196226,-0.059453,-0.246803,-4.087496,-1.558675,0.049954,1.248767,0.005914,0.024671,-1.669869,-1.567602,0.003777,3.906964,0.046604,0.203388,-0.548167,0.001073,0.000409,,,,,,,,,,,,,,,,,,,,,,,,,,,,,,,,,,,,,,,,
1646675097.748484,,,,,,,,,,,,,,,,,,,,,,,,,,,,,,,,,,,,,,,,,-0.000035,-0.000108,-0.000164,0.000018,0.000085,0.000177,0.000197,0.000766,0.001771,0.001113,0.003239,0.003674,-0.001821,-0.007818,-0.020439,0.000411,0.001078,0.000462,840.000000,0.000000
1646675097.748512,,,,,,,,,,,,,,,,,,,,,0.060788,0.006373,0.025675,0.121577,-1.558051,0.051350,-0.607884,-0.063729,-0.256751,0.000000,-1.570796,0.000000,0.547095,0.057356,0.231076,0.000000,0.000000,0.000000,840.000000,0.000000,,,,,,,,,,,,,,,,,,,,
1646675097.750252,,,,,,,,,,,,,,,,,,,,,,,,,,,,,,,,,,,,,,,,,-0.000035,-0.000107,-0.000157,0.000018,0.000086,0.000244,0.000198,0.000763,0.001594,0.001119,0.003246,0.003793,-0.001837,-0.007854,-0.020557,0.000413,0.001079,0.000461,841.000000,0.000000
1646675097.750798,,,,,,,,,,,,,,,,,,,,,0.060840,0.006424,0.025795,0.121679,-1.557949,0.051590,-0.608395,-0.064235,-0.257948,0.000000,-1.570796,0.000000,0.547556,0.057812,0.232153,0.000000,0.000000,0.000000,841.000000,0.000000,,,,,,,,,,,,,,,,,,,,
1646675097.752276,,,,,,,,,,,,,,,,,,,,,,,,,,,,,,,,,,,,,,,,,-0.000035,-0.000107,-0.000154,0.000019,0.000088,0.000275,0.000200,0.000758,0.001532,0.001126,0.003254,0.003828,-0.001852,-0.007887,-0.020359,0.000415,0.001080,0.000462,842.000000,0.000000
1646675097.752351,,,,,,,,,,,,,,,,,,,,,0.060891,0.006475,0.025916,0.121781,-1.557846,0.051832,-0.608906,-0.064751,-0.259161,0.000000,-1.570796,0.000000,0.548016,0.058276,0.233245,0.000000,0.000000,0.000000,842.000000,0.000000,,,,,,,,,,,,,,,,,,,,
1646675097.754307,,,,,,,,,,,,,,,,,,,,,,,,,,,,,,,,,,,,,,,,,-0.000035,-0.000107,-0.000161,0.000019,0.000089,0.000180,0.000201,0.000760,0.001791,0.001132,0.003262,0.003670,-0.001868,-0.007926,-0.020128,0.000417,0.001081,0.000471,843.000000,0.000000
1646675097.754345,,,,,,,,,,,,,,,,,,,,,0.060943,0.006528,0.026041,0.121885,-1.557739,0.052082,-0.609426,-0.065284,-0.260412,0.000000,-1.570796,0.000000,0.548484,0.058756,0.234371,0.000000,0.000000,0.000000,843.000000,0.000000,,,,,,,,,,,,,,,,,,,,
1646675097.756280,,,,,,,,,,,,,,,,,,,,,,,,,,,,,,,,,,,,,,,,,-0.000035,-0.000109,-0.000174,0.000019,0.000086,0.000024,0.000203,0.000778,0.002192,0.001139,0.003269,0.003455,-0.001884,-0.007979,-0.020263,0.000419,0.001082,0.000485,844.000000,0.000000
1646675097.756310,,,,,,,,,,,,,,,,,,,,,0.060992,0.006580,0.026162,0.121984,-1.557636,0.052324,-0.609921,-0.065801,-0.261619,0.000000,-1.570796,0.000000,0.548929,0.059221,0.235457,0.000000,0.000000,0.000000,844.000000,0.000000,,,,,,,,,,,,,,,,,,,,
1646675097.758357,1864808.000000,1646675097.757966,-9.518551,-0.063477,-0.256416,-4.145329,-1.557861,0.051864,1.275605,0.006317,0.025641,-1.701547,-1.567542,0.003828,4.072546,0.049924,0.211794,-0.552352,0.001080,0.000462,,,,,,,,,,,,,,,,,,,,,,,,,,,,,,,,,,,,,,,,
1646675097.758481,,,,,,,,,,,,,,,,,,,,,,,,,,,,,,,,,,,,,,,,,-0.000036,-0.000108,-0.000169,0.000019,0.000088,0.000027,0.000204,0.000777,0.002147,0.001145,0.003276,0.003503,-0.001900,-0.008015,-0.020692,0.000421,0.001083,0.000488,845.000000,0.000000
1646675097.758520,,,,,,,,,,,,,,,,,,,,,0.061042,0.006633,0.026284,0.122083,-1.557531,0.052569,-0.610416,-0.066327,-0.262844,0.000000,-1.570796,0.000000,0.549375,0.059695,0.236559,0.000000,0.000000,0.000000,845.000000,0.000000,,,,,,,,,,,,,,,,,,,,
1646675097.760543,,,,,,,,,,,,,,,,,,,,,,,,,,,,,,,,,,,,,,,,,-0.000036,-0.000109,-0.000160,0.000019,0.000087,0.000134,0.000206,0.000783,0.001872,0.001152,0.003283,0.003699,-0.001916,-0.008059,-0.020920,0.000424,0.001084,0.000480,846.000000,0.000000
1646675097.761167,,,,,,,,,,,,,,,,,,,,,0.061090,0.006685,0.026404,0.122179,-1.557427,0.052809,-0.610895,-0.066845,-0.264045,0.000000,-1.570796,0.000000,0.549806,0.060161,0.237640,0.000000,0.000000,0.000000,846.000000,0.000000,,,,,,,,,,,,,,,,,,,,
1646675097.762442,,,,,,,,,,,,,,,,,,,,,,,,,,,,,,,,,,,,,,,,,-0.000036,-0.000108,-0.000153,0.000019,0.000089,0.000206,0.000207,0.000778,0.001723,0.001158,0.003290,0.003787,-0.001933,-0.008092,-0.020614,0.000426,0.001085,0.000470,847.000000,0.000000
1646675097.762469,,,,,,,,,,,,,,,,,,,,,0.061139,0.006739,0.026529,0.122277,-1.557319,0.053058,-0.611385,-0.067385,-0.265292,0.000000,-1.570796,0.000000,0.550247,0.060647,0.238763,0.000000,0.000000,0.000000,847.000000,0.000000,,,,,,,,,,,,,,,,,,,,
1646675097.764679,,,,,,,,,,,,,,,,,,,,,,,,,,,,,,,,,,,,,,,,,-0.000036,-0.000110,-0.000159,0.000020,0.000088,0.000179,0.000209,0.000792,0.001842,0.001165,0.003298,0.003734,-0.001949,-0.008143,-0.020309,0.000428,0.001086,0.000469,848.000000,0.000000
1646675097.764714,,,,,,,,,,,,,,,,,,,,,0.061186,0.006792,0.026651,0.122372,-1.557213,0.053302,-0.611858,-0.067916,-0.266511,0.000000,-1.570796,0.000000,0.550672,0.061124,0.239860,0.000000,0.000000,0.000000,848.000000,0.000000,,,,,,,,,,,,,,,,,,,,
1646675097.766586,,,,,,,,,,,,,,,,,,,,,,,,,,,,,,,,,,,,,,,,,-0.000037,-0.000110,-0.000158,0.000020,0.000088,0.000160,0.000211,0.000794,0.001877,0.001172,0.003305,0.003728,-0.001965,-0.008182,-0.020460,0.000430,0.001086,0.000474,849.000000,0.000000
1646675097.766618,,,,,,,,,,,,,,,,,,,,,0.061233,0.006845,0.026774,0.122466,-1.557106,0.053548,-0.612328,-0.068452,-0.267741,0.000000,-1.570796,0.000000,0.551095,0.061607,0.240967,0.000000,0.000000,0.000000,849.000000,0.000000,,,,,,,,,,,,,,,,,,,,
1646675097.768412,,,,,,,,,,,,,,,,,,,,,,,,,,,,,,,,,,,,,,,,,-0.000037,-0.000111,-0.000153,0.000020,0.000088,0.000214,0.000212,0.000800,0.001711,0.001178,0.003313,0.003860,-0.001982,-0.008226,-0.020858,0.000432,0.001087,0.000475,850.000000,0.000000
1646675097.768489,1864809.000000,1646675097.767980,-9.518551,-0.063477,-0.256416,-4.145329,-1.557861,0.051864,1.275605,0.006317,0.025641,-1.701547,-1.567542,0.003828,4.072546,0.049924,0.211794,-0.552352,0.001080,0.000462,,,,,,,,,,,,,,,,,,,,,,,,,,,,,,,,,,,,,,,,
1646675097.768513,,,,,,,,,,,,,,,,,,,,,0.061279,0.006899,0.026897,0.122558,-1.556998,0.053794,-0.612790,-0.068990,-0.268968,0.000000,-1.570796,0.000000,0.551511,0.062091,0.242071,0.000000,0.000000,0.000000,850.000000,0.000000,,,,,,,,,,,,,,,,,,,,
1646675097.770585,,,,,,,,,,,,,,,,,,,,,,,,,,,,,,,,,,,,,,,,,-0.000037,-0.000111,-0.000149,0.000020,0.000089,0.000268,0.000214,0.000804,0.001583,0.001185,0.003321,0.003955,-0.001998,-0.008268,-0.020869,0.000434,0.001088,0.000474,851.000000,0.000000
1646675097.770612,,,,,,,,,,,,,,,,,,,,,0.061323,0.006952,0.027017,0.122647,-1.556893,0.054034,-0.613235,-0.069517,-0.270168,0.000000,-1.570796,0.000000,0.551911,0.062566,0.243151,0.000000,0.000000,0.000000,851.000000,0.000000,,,,,,,,,,,,,,,,,,,,
1646675097.772521,,,,,,,,,,,,,,,,,,,,,,,,,,,,,,,,,,,,,,,,,-0.000037,-0.000110,-0.000144,0.000020,0.000091,0.000319,0.000215,0.000796,0.001475,0.001191,0.003329,0.004009,-0.002015,-0.008299,-0.020530,0.000437,0.001089,0.000472,852.000000,0.000000
1646675097.772636,,,,,,,,,,,,,,,,,,,,,0.061369,0.007007,0.027142,0.122738,-1.556782,0.054284,-0.613692,-0.070070,-0.271420,0.000000,-1.570796,0.000000,0.552323,0.063063,0.244278,0.000000,0.000000,0.000000,852.000000,0.000000,,,,,,,,,,,,,,,,,,,,
1646675097.774420,,,,,,,,,,,,,,,,,,,,,,,,,,,,,,,,,,,,,,,,,-0.000037,-0.000111,-0.000151,0.000021,0.000090,0.000255,0.000217,0.000810,0.001668,0.001198,0.003337,0.003909,-0.002032,-0.008350,-0.020375,0.000439,0.001090,0.000479,853.000000,0.000000
